{"city":"北京市","area":"","code":"1100001001","county":"","name":"中西部","province":"北京市","meshId":"605641","job1":"城区","job2":"中关村大学","workProperty":"","geometry":"POLYGON ((116.125 40.333333, 116.125 40.416667, 116.25 40.416667, 116.25 40.333333,116.125 40.333333))"}
{"city":"北京市","area":"","code":"1100001001","county":"","name":"中西部","province":"北京市","meshId":"605642","job1":"城区","job2":"中关村大学","workProperty":"","geometry":"POLYGON ((116.25 40.333333, 116.25 40.416667, 116.375 40.416667, 116.375 40.333333,116.25 40.333333))"}
{"city":"北京市","area":"","code":"1100001001","county":"","name":"中西部","province":"北京市","meshId":"605537","job1":"城区","job2":"中关村大学","workProperty":"","geometry":"POLYGON ((115.875 40.25, 115.875 40.333333, 116.0 40.333333, 116.0 40.25,115.875 40.25))"}
{"city":"北京市","area":"","code":"1100001001","county":"","name":"中西部","province":"北京市","meshId":"605643","job1":"城区","job2":"中关村大学","workProperty":"","geometry":"POLYGON ((116.375 40.333333, 116.375 40.416667, 116.5 40.416667, 116.5 40.333333,116.375 40.333333))"}
{"city":"北京市","area":"","code":"1100001001","county":"","name":"中西部","province":"北京市","meshId":"605644","job1":"城区","job2":"中关村大学","workProperty":"","geometry":"POLYGON ((116.5 40.333333, 116.5 40.416667, 116.625 40.416667, 116.625 40.333333,116.5 40.333333))"}
{"city":"北京市","area":"","code":"1100001001","county":"","name":"中西部","province":"北京市","meshId":"605645","job1":"城区","job2":"中关村大学","workProperty":"","geometry":"POLYGON ((116.625 40.333333, 116.625 40.416667, 116.75 40.416667, 116.75 40.333333,116.625 40.333333))"}
{"city":"北京市","area":"","code":"1100001001","county":"","name":"中西部","province":"北京市","meshId":"605646","job1":"城区","job2":"中关村大学","workProperty":"","geometry":"POLYGON ((116.75 40.333333, 116.75 40.416667, 116.875 40.416667, 116.875 40.333333,116.75 40.333333))"}
{"city":"北京市","area":"","code":"1100001001","county":"","name":"中西部","province":"北京市","meshId":"605647","job1":"城区","job2":"中关村大学","workProperty":"","geometry":"POLYGON ((116.875 40.333333, 116.875 40.416667, 117.0 40.416667, 117.0 40.333333,116.875 40.333333))"}
{"city":"北京市","area":"","code":"1100001001","county":"","name":"中西部","province":"北京市","meshId":"615645","job1":"城区","job2":"中关村大学","workProperty":"","geometry":"POLYGON ((116.625 41.0, 116.625 41.083333, 116.75 41.083333, 116.75 41.0,116.625 41.0))"}
{"city":"北京市","area":"","code":"1100001001","county":"","name":"中西部","province":"北京市","meshId":"615644","job1":"城区","job2":"中关村大学","workProperty":"","geometry":"POLYGON ((116.5 41.0, 116.5 41.083333, 116.625 41.083333, 116.625 41.0,116.5 41.0))"}
{"city":"北京市","area":"","code":"1100001001","county":"","name":"中西部","province":"北京市","meshId":"605640","job1":"城区","job2":"中关村大学","workProperty":"","geometry":"POLYGON ((116.0 40.333333, 116.0 40.416667, 116.125 40.416667, 116.125 40.333333,116.0 40.333333))"}
{"city":"北京市","area":"","code":"1100001001","county":"","name":"中西部","province":"北京市","meshId":"595634","job1":"城区","job2":"中关村大学","workProperty":"","geometry":"POLYGON ((116.5 39.583333, 116.5 39.666667, 116.625 39.666667, 116.625 39.583333,116.5 39.583333))"}
{"city":"北京市","area":"","code":"1100001001","county":"","name":"中西部","province":"北京市","meshId":"595635","job1":"城区","job2":"中关村大学","workProperty":"","geometry":"POLYGON ((116.625 39.583333, 116.625 39.666667, 116.75 39.666667, 116.75 39.583333,116.625 39.583333))"}
{"city":"北京市","area":"","code":"1100001001","county":"","name":"中西部","province":"北京市","meshId":"595632","job1":"城区","job2":"中关村大学","workProperty":"","geometry":"POLYGON ((116.25 39.583333, 116.25 39.666667, 116.375 39.666667, 116.375 39.583333,116.25 39.583333))"}
{"city":"北京市","area":"","code":"1100001001","county":"","name":"中西部","province":"北京市","meshId":"595633","job1":"城区","job2":"中关村大学","workProperty":"","geometry":"POLYGON ((116.375 39.583333, 116.375 39.666667, 116.5 39.666667, 116.5 39.583333,116.375 39.583333))"}
{"city":"北京市","area":"","code":"1100001001","county":"","name":"中西部","province":"北京市","meshId":"595630","job1":"城区","job2":"中关村大学","workProperty":"","geometry":"POLYGON ((116.0 39.583333, 116.0 39.666667, 116.125 39.666667, 116.125 39.583333,116.0 39.583333))"}
{"city":"北京市","area":"","code":"1100001001","county":"","name":"中西部","province":"北京市","meshId":"595631","job1":"城区","job2":"中关村大学","workProperty":"","geometry":"POLYGON ((116.125 39.583333, 116.125 39.666667, 116.25 39.666667, 116.25 39.583333,116.125 39.583333))"}
{"city":"北京市","area":"","code":"1100001001","county":"","name":"中西部","province":"北京市","meshId":"595636","job1":"城区","job2":"中关村大学","workProperty":"","geometry":"POLYGON ((116.75 39.583333, 116.75 39.666667, 116.875 39.666667, 116.875 39.583333,116.75 39.583333))"}
{"city":"北京市","area":"","code":"1100001001","county":"","name":"中西部","province":"北京市","meshId":"605654","job1":"城区","job2":"中关村大学","workProperty":"","geometry":"POLYGON ((116.5 40.416667, 116.5 40.5, 116.625 40.5, 116.625 40.416667,116.5 40.416667))"}
{"city":"北京市","area":"","code":"1100001001","county":"","name":"中西部","province":"北京市","meshId":"605526","job1":"城区","job2":"中关村大学","workProperty":"","geometry":"POLYGON ((115.75 40.166667, 115.75 40.25, 115.875 40.25, 115.875 40.166667,115.75 40.166667))"}
{"city":"北京市","area":"","code":"1100001001","county":"","name":"中西部","province":"北京市","meshId":"605655","job1":"城区","job2":"中关村大学","workProperty":"","geometry":"POLYGON ((116.625 40.416667, 116.625 40.5, 116.75 40.5, 116.75 40.416667,116.625 40.416667))"}
{"city":"北京市","area":"","code":"1100001001","county":"","name":"中西部","province":"北京市","meshId":"605527","job1":"城区","job2":"中关村大学","workProperty":"","geometry":"POLYGON ((115.875 40.166667, 115.875 40.25, 116.0 40.25, 116.0 40.166667,115.875 40.166667))"}
{"city":"北京市","area":"","code":"1100001001","county":"","name":"中西部","province":"北京市","meshId":"605652","job1":"城区","job2":"中关村大学","workProperty":"","geometry":"POLYGON ((116.25 40.416667, 116.25 40.5, 116.375 40.5, 116.375 40.416667,116.25 40.416667))"}
{"city":"北京市","area":"","code":"1100001001","county":"","name":"中西部","province":"北京市","meshId":"605653","job1":"城区","job2":"中关村大学","workProperty":"","geometry":"POLYGON ((116.375 40.416667, 116.375 40.5, 116.5 40.5, 116.5 40.416667,116.375 40.416667))"}
{"city":"北京市","area":"","code":"1100001001","county":"","name":"中西部","province":"北京市","meshId":"605656","job1":"城区","job2":"中关村大学","workProperty":"","geometry":"POLYGON ((116.75 40.416667, 116.75 40.5, 116.875 40.5, 116.875 40.416667,116.75 40.416667))"}
{"city":"北京市","area":"","code":"1100001001","county":"","name":"中西部","province":"北京市","meshId":"605657","job1":"城区","job2":"中关村大学","workProperty":"","geometry":"POLYGON ((116.875 40.416667, 116.875 40.5, 117.0 40.5, 117.0 40.416667,116.875 40.416667))"}
{"city":"北京市","area":"","code":"1100001001","county":"","name":"中西部","province":"北京市","meshId":"605650","job1":"城区","job2":"中关村大学","workProperty":"","geometry":"POLYGON ((116.0 40.416667, 116.0 40.5, 116.125 40.5, 116.125 40.416667,116.0 40.416667))"}
{"city":"北京市","area":"","code":"1100001001","county":"","name":"中西部","province":"北京市","meshId":"605651","job1":"城区","job2":"中关村大学","workProperty":"","geometry":"POLYGON ((116.125 40.416667, 116.125 40.5, 116.25 40.5, 116.25 40.416667,116.125 40.416667))"}
{"city":"北京市","area":"","code":"1100001001","county":"","name":"中西部","province":"北京市","meshId":"595621","job1":"城区","job2":"中关村大学","workProperty":"","geometry":"POLYGON ((116.125 39.5, 116.125 39.583333, 116.25 39.583333, 116.25 39.5,116.125 39.5))"}
{"city":"北京市","area":"","code":"1100001001","county":"","name":"中西部","province":"北京市","meshId":"595622","job1":"城区","job2":"中关村大学","workProperty":"","geometry":"POLYGON ((116.25 39.5, 116.25 39.583333, 116.375 39.583333, 116.375 39.5,116.25 39.5))"}
{"city":"北京市","area":"","code":"1100001001","county":"","name":"中西部","province":"北京市","meshId":"595623","job1":"城区","job2":"中关村大学","workProperty":"","geometry":"POLYGON ((116.375 39.5, 116.375 39.583333, 116.5 39.583333, 116.5 39.5,116.375 39.5))"}
{"city":"北京市","area":"","code":"1100001001","county":"","name":"中西部","province":"北京市","meshId":"595624","job1":"城区","job2":"中关村大学","workProperty":"","geometry":"POLYGON ((116.5 39.5, 116.5 39.583333, 116.625 39.583333, 116.625 39.5,116.5 39.5))"}
{"city":"北京市","area":"","code":"1100001001","county":"","name":"中西部","province":"北京市","meshId":"595620","job1":"城区","job2":"中关村大学","workProperty":"","geometry":"POLYGON ((116.0 39.5, 116.0 39.583333, 116.125 39.583333, 116.125 39.5,116.0 39.5))"}
{"city":"北京市","area":"","code":"1100001001","county":"","name":"中西部","province":"北京市","meshId":"605517","job1":"城区","job2":"中关村大学","workProperty":"","geometry":"POLYGON ((115.875 40.083333, 115.875 40.166667, 116.0 40.166667, 116.0 40.083333,115.875 40.083333))"}
{"city":"北京市","area":"","code":"1100001001","county":"","name":"中西部","province":"北京市","meshId":"605667","job1":"城区","job2":"中关村大学","workProperty":"","geometry":"POLYGON ((116.875 40.5, 116.875 40.583333, 117.0 40.583333, 117.0 40.5,116.875 40.5))"}
{"city":"北京市","area":"","code":"1100001001","county":"","name":"中西部","province":"北京市","meshId":"605555","job1":"城区","job2":"中关村大学","workProperty":"","geometry":"POLYGON ((115.625 40.416667, 115.625 40.5, 115.75 40.5, 115.75 40.416667,115.625 40.416667))"}
{"city":"北京市","area":"","code":"1100001001","county":"","name":"中西部","province":"北京市","meshId":"605556","job1":"城区","job2":"中关村大学","workProperty":"","geometry":"POLYGON ((115.75 40.416667, 115.75 40.5, 115.875 40.5, 115.875 40.416667,115.75 40.416667))"}
{"city":"北京市","area":"","code":"1100001001","county":"","name":"中西部","province":"北京市","meshId":"605663","job1":"城区","job2":"中关村大学","workProperty":"","geometry":"POLYGON ((116.375 40.5, 116.375 40.583333, 116.5 40.583333, 116.5 40.5,116.375 40.5))"}
{"city":"北京市","area":"","code":"1100001001","county":"","name":"中西部","province":"北京市","meshId":"605557","job1":"城区","job2":"中关村大学","workProperty":"","geometry":"POLYGON ((115.875 40.416667, 115.875 40.5, 116.0 40.5, 116.0 40.416667,115.875 40.416667))"}
{"city":"北京市","area":"","code":"1100001001","county":"","name":"中西部","province":"北京市","meshId":"605664","job1":"城区","job2":"中关村大学","workProperty":"","geometry":"POLYGON ((116.5 40.5, 116.5 40.583333, 116.625 40.583333, 116.625 40.5,116.5 40.5))"}
{"city":"北京市","area":"","code":"1100001001","county":"","name":"中西部","province":"北京市","meshId":"605665","job1":"城区","job2":"中关村大学","workProperty":"","geometry":"POLYGON ((116.625 40.5, 116.625 40.583333, 116.75 40.583333, 116.75 40.5,116.625 40.5))"}
{"city":"北京市","area":"","code":"1100001001","county":"","name":"中西部","province":"北京市","meshId":"605760","job1":"城区","job2":"中关村大学","workProperty":"","geometry":"POLYGON ((117.0 40.5, 117.0 40.583333, 117.125 40.583333, 117.125 40.5,117.0 40.5))"}
{"city":"北京市","area":"","code":"1100001001","county":"","name":"中西部","province":"北京市","meshId":"605666","job1":"城区","job2":"中关村大学","workProperty":"","geometry":"POLYGON ((116.75 40.5, 116.75 40.583333, 116.875 40.583333, 116.875 40.5,116.75 40.5))"}
{"city":"北京市","area":"","code":"1100001001","county":"","name":"中西部","province":"北京市","meshId":"605761","job1":"城区","job2":"中关村大学","workProperty":"","geometry":"POLYGON ((117.125 40.5, 117.125 40.583333, 117.25 40.583333, 117.25 40.5,117.125 40.5))"}
{"city":"北京市","area":"","code":"1100001001","county":"","name":"中西部","province":"北京市","meshId":"605762","job1":"城区","job2":"中关村大学","workProperty":"","geometry":"POLYGON ((117.25 40.5, 117.25 40.583333, 117.375 40.583333, 117.375 40.5,117.25 40.5))"}
{"city":"北京市","area":"","code":"1100001001","county":"","name":"中西部","province":"北京市","meshId":"605763","job1":"城区","job2":"中关村大学","workProperty":"","geometry":"POLYGON ((117.375 40.5, 117.375 40.583333, 117.5 40.583333, 117.5 40.5,117.375 40.5))"}
{"city":"北京市","area":"","code":"1100001001","county":"","name":"中西部","province":"北京市","meshId":"605660","job1":"城区","job2":"中关村大学","workProperty":"","geometry":"POLYGON ((116.0 40.5, 116.0 40.583333, 116.125 40.583333, 116.125 40.5,116.0 40.5))"}
{"city":"北京市","area":"","code":"1100001001","county":"","name":"中西部","province":"北京市","meshId":"605661","job1":"城区","job2":"中关村大学","workProperty":"","geometry":"POLYGON ((116.125 40.5, 116.125 40.583333, 116.25 40.583333, 116.25 40.5,116.125 40.5))"}
{"city":"北京市","area":"","code":"1100001001","county":"","name":"中西部","province":"北京市","meshId":"605662","job1":"城区","job2":"中关村大学","workProperty":"","geometry":"POLYGON ((116.25 40.5, 116.25 40.583333, 116.375 40.583333, 116.375 40.5,116.25 40.5))"}
{"city":"北京市","area":"","code":"1100001001","county":"","name":"中西部","province":"北京市","meshId":"595612","job1":"城区","job2":"中关村大学","workProperty":"","geometry":"POLYGON ((116.25 39.416667, 116.25 39.5, 116.375 39.5, 116.375 39.416667,116.25 39.416667))"}
{"city":"北京市","area":"","code":"1100001001","county":"","name":"中西部","province":"北京市","meshId":"595613","job1":"城区","job2":"中关村大学","workProperty":"","geometry":"POLYGON ((116.375 39.416667, 116.375 39.5, 116.5 39.5, 116.5 39.416667,116.375 39.416667))"}
{"city":"北京市","area":"","code":"1100001001","county":"","name":"中西部","province":"北京市","meshId":"605771","job1":"城区","job2":"中关村大学","workProperty":"","geometry":"POLYGON ((117.125 40.583333, 117.125 40.666667, 117.25 40.666667, 117.25 40.583333,117.125 40.583333))"}
{"city":"北京市","area":"","code":"1100001001","county":"","name":"中西部","province":"北京市","meshId":"605676","job1":"城区","job2":"中关村大学","workProperty":"","geometry":"POLYGON ((116.75 40.583333, 116.75 40.666667, 116.875 40.666667, 116.875 40.583333,116.75 40.583333))"}
{"city":"北京市","area":"","code":"1100001001","county":"","name":"中西部","province":"北京市","meshId":"605772","job1":"城区","job2":"中关村大学","workProperty":"","geometry":"POLYGON ((117.25 40.583333, 117.25 40.666667, 117.375 40.666667, 117.375 40.583333,117.25 40.583333))"}
{"city":"北京市","area":"","code":"1100001001","county":"","name":"中西部","province":"北京市","meshId":"605677","job1":"城区","job2":"中关村大学","workProperty":"","geometry":"POLYGON ((116.875 40.583333, 116.875 40.666667, 117.0 40.666667, 117.0 40.583333,116.875 40.583333))"}
{"city":"北京市","area":"","code":"1100001001","county":"","name":"中西部","province":"北京市","meshId":"605674","job1":"城区","job2":"中关村大学","workProperty":"","geometry":"POLYGON ((116.5 40.583333, 116.5 40.666667, 116.625 40.666667, 116.625 40.583333,116.5 40.583333))"}
{"city":"北京市","area":"","code":"1100001001","county":"","name":"中西部","province":"北京市","meshId":"605546","job1":"城区","job2":"中关村大学","workProperty":"","geometry":"POLYGON ((115.75 40.333333, 115.75 40.416667, 115.875 40.416667, 115.875 40.333333,115.75 40.333333))"}
{"city":"北京市","area":"","code":"1100001001","county":"","name":"中西部","province":"北京市","meshId":"605547","job1":"城区","job2":"中关村大学","workProperty":"","geometry":"POLYGON ((115.875 40.333333, 115.875 40.416667, 116.0 40.416667, 116.0 40.333333,115.875 40.333333))"}
{"city":"北京市","area":"","code":"1100001001","county":"","name":"中西部","province":"北京市","meshId":"605675","job1":"城区","job2":"中关村大学","workProperty":"","geometry":"POLYGON ((116.625 40.583333, 116.625 40.666667, 116.75 40.666667, 116.75 40.583333,116.625 40.583333))"}
{"city":"北京市","area":"","code":"1100001001","county":"","name":"中西部","province":"北京市","meshId":"605770","job1":"城区","job2":"中关村大学","workProperty":"","geometry":"POLYGON ((117.0 40.583333, 117.0 40.666667, 117.125 40.666667, 117.125 40.583333,117.0 40.583333))"}
{"city":"北京市","area":"","code":"1100001001","county":"","name":"中西部","province":"北京市","meshId":"605672","job1":"城区","job2":"中关村大学","workProperty":"","geometry":"POLYGON ((116.25 40.583333, 116.25 40.666667, 116.375 40.666667, 116.375 40.583333,116.25 40.583333))"}
{"city":"北京市","area":"","code":"1100001001","county":"","name":"中西部","province":"北京市","meshId":"605673","job1":"城区","job2":"中关村大学","workProperty":"","geometry":"POLYGON ((116.375 40.583333, 116.375 40.666667, 116.5 40.666667, 116.5 40.583333,116.375 40.583333))"}
{"city":"北京市","area":"","code":"1100001001","county":"","name":"中西部","province":"北京市","meshId":"605670","job1":"城区","job2":"中关村大学","workProperty":"","geometry":"POLYGON ((116.0 40.583333, 116.0 40.666667, 116.125 40.666667, 116.125 40.583333,116.0 40.583333))"}
{"city":"北京市","area":"","code":"1100001001","county":"","name":"中西部","province":"北京市","meshId":"605773","job1":"城区","job2":"中关村大学","workProperty":"","geometry":"POLYGON ((117.375 40.583333, 117.375 40.666667, 117.5 40.666667, 117.5 40.583333,117.375 40.583333))"}
{"city":"北京市","area":"","code":"1100001001","county":"","name":"中西部","province":"北京市","meshId":"605671","job1":"城区","job2":"中关村大学","workProperty":"","geometry":"POLYGON ((116.125 40.583333, 116.125 40.666667, 116.25 40.666667, 116.25 40.583333,116.125 40.583333))"}
{"city":"北京市","area":"","code":"1100001001","county":"","name":"中西部","province":"北京市","meshId":"605741","job1":"城区","job2":"中关村大学","workProperty":"","geometry":"POLYGON ((117.125 40.333333, 117.125 40.416667, 117.25 40.416667, 117.25 40.333333,117.125 40.333333))"}
{"city":"北京市","area":"","code":"1100001001","county":"","name":"中西部","province":"北京市","meshId":"605740","job1":"城区","job2":"中关村大学","workProperty":"","geometry":"POLYGON ((117.0 40.333333, 117.0 40.416667, 117.125 40.416667, 117.125 40.333333,117.0 40.333333))"}
{"city":"北京市","area":"","code":"1100001001","county":"","name":"中西部","province":"北京市","meshId":"605742","job1":"城区","job2":"中关村大学","workProperty":"","geometry":"POLYGON ((117.25 40.333333, 117.25 40.416667, 117.375 40.416667, 117.375 40.333333,117.25 40.333333))"}
{"city":"北京市","area":"","code":"1100001001","county":"","name":"中西部","province":"北京市","meshId":"605600","job1":"城区","job2":"中关村大学","workProperty":"","geometry":"POLYGON ((116.0 40.0, 116.0 40.083333, 116.125 40.083333, 116.125 40.0,116.0 40.0))"}
{"city":"北京市","area":"","code":"1100001001","county":"","name":"中西部","province":"北京市","meshId":"605602","job1":"城区","job2":"中关村大学","workProperty":"","geometry":"POLYGON ((116.25 40.0, 116.25 40.083333, 116.375 40.083333, 116.375 40.0,116.25 40.0))"}
{"city":"北京市","area":"","code":"1100001001","county":"","name":"中西部","province":"北京市","meshId":"605601","job1":"城区","job2":"中关村大学","workProperty":"","geometry":"POLYGON ((116.125 40.0, 116.125 40.083333, 116.25 40.083333, 116.25 40.0,116.125 40.0))"}
{"city":"北京市","area":"","code":"1100001001","county":"","name":"中西部","province":"北京市","meshId":"605604","job1":"城区","job2":"中关村大学","workProperty":"","geometry":"POLYGON ((116.5 40.0, 116.5 40.083333, 116.625 40.083333, 116.625 40.0,116.5 40.0))"}
{"city":"北京市","area":"","code":"1100001001","county":"","name":"中西部","province":"北京市","meshId":"605603","job1":"城区","job2":"中关村大学","workProperty":"","geometry":"POLYGON ((116.375 40.0, 116.375 40.083333, 116.5 40.083333, 116.5 40.0,116.375 40.0))"}
{"city":"北京市","area":"","code":"1100001001","county":"","name":"中西部","province":"北京市","meshId":"595536","job1":"城区","job2":"中关村大学","workProperty":"","geometry":"POLYGON ((115.75 39.583333, 115.75 39.666667, 115.875 39.666667, 115.875 39.583333,115.75 39.583333))"}
{"city":"北京市","area":"","code":"1100001001","county":"","name":"中西部","province":"北京市","meshId":"595535","job1":"城区","job2":"中关村大学","workProperty":"","geometry":"POLYGON ((115.625 39.583333, 115.625 39.666667, 115.75 39.666667, 115.75 39.583333,115.625 39.583333))"}
{"city":"北京市","area":"","code":"1100001001","county":"","name":"中西部","province":"北京市","meshId":"595534","job1":"城区","job2":"中关村大学","workProperty":"","geometry":"POLYGON ((115.5 39.583333, 115.5 39.666667, 115.625 39.666667, 115.625 39.583333,115.5 39.583333))"}
{"city":"北京市","area":"","code":"1100001001","county":"","name":"中西部","province":"北京市","meshId":"595533","job1":"城区","job2":"中关村大学","workProperty":"","geometry":"POLYGON ((115.375 39.583333, 115.375 39.666667, 115.5 39.666667, 115.5 39.583333,115.375 39.583333))"}
{"city":"北京市","area":"","code":"1100001001","county":"","name":"中西部","province":"北京市","meshId":"595676","job1":"城区","job2":"中关村大学","workProperty":"","geometry":"POLYGON ((116.75 39.916667, 116.75 40.0, 116.875 40.0, 116.875 39.916667,116.75 39.916667))"}
{"city":"北京市","area":"","code":"1100001001","county":"","name":"中西部","province":"北京市","meshId":"595537","job1":"城区","job2":"中关村大学","workProperty":"","geometry":"POLYGON ((115.875 39.583333, 115.875 39.666667, 116.0 39.666667, 116.0 39.583333,115.875 39.583333))"}
{"city":"北京市","area":"","code":"1100001001","county":"","name":"中西部","province":"北京市","meshId":"595675","job1":"城区","job2":"中关村大学","workProperty":"","geometry":"POLYGON ((116.625 39.916667, 116.625 40.0, 116.75 40.0, 116.75 39.916667,116.625 39.916667))"}
{"city":"北京市","area":"","code":"1100001001","county":"","name":"中西部","province":"北京市","meshId":"595674","job1":"城区","job2":"中关村大学","workProperty":"","geometry":"POLYGON ((116.5 39.916667, 116.5 40.0, 116.625 40.0, 116.625 39.916667,116.5 39.916667))"}
{"city":"北京市","area":"","code":"1100001001","county":"","name":"中西部","province":"北京市","meshId":"595673","job1":"城区","job2":"中关村大学","workProperty":"","geometry":"POLYGON ((116.375 39.916667, 116.375 40.0, 116.5 40.0, 116.5 39.916667,116.375 39.916667))"}
{"city":"北京市","area":"","code":"1100001001","county":"","name":"中西部","province":"北京市","meshId":"595672","job1":"城区","job2":"中关村大学","workProperty":"","geometry":"POLYGON ((116.25 39.916667, 116.25 40.0, 116.375 40.0, 116.375 39.916667,116.25 39.916667))"}
{"city":"北京市","area":"","code":"1100001001","county":"","name":"中西部","province":"北京市","meshId":"595670","job1":"城区","job2":"中关村大学","workProperty":"","geometry":"POLYGON ((116.0 39.916667, 116.0 40.0, 116.125 40.0, 116.125 39.916667,116.0 39.916667))"}
{"city":"北京市","area":"","code":"1100001001","county":"","name":"中西部","province":"北京市","meshId":"595671","job1":"城区","job2":"中关村大学","workProperty":"","geometry":"POLYGON ((116.125 39.916667, 116.125 40.0, 116.25 40.0, 116.25 39.916667,116.125 39.916667))"}
{"city":"北京市","area":"","code":"1100001001","county":"","name":"中西部","province":"北京市","meshId":"605752","job1":"城区","job2":"中关村大学","workProperty":"","geometry":"POLYGON ((117.25 40.416667, 117.25 40.5, 117.375 40.5, 117.375 40.416667,117.25 40.416667))"}
{"city":"北京市","area":"","code":"1100001001","county":"","name":"中西部","province":"北京市","meshId":"605751","job1":"城区","job2":"中关村大学","workProperty":"","geometry":"POLYGON ((117.125 40.416667, 117.125 40.5, 117.25 40.5, 117.25 40.416667,117.125 40.416667))"}
{"city":"北京市","area":"","code":"1100001001","county":"","name":"中西部","province":"北京市","meshId":"605750","job1":"城区","job2":"中关村大学","workProperty":"","geometry":"POLYGON ((117.0 40.416667, 117.0 40.5, 117.125 40.5, 117.125 40.416667,117.0 40.416667))"}
{"city":"北京市","area":"","code":"1100001001","county":"","name":"中西部","province":"北京市","meshId":"605611","job1":"城区","job2":"中关村大学","workProperty":"","geometry":"POLYGON ((116.125 40.083333, 116.125 40.166667, 116.25 40.166667, 116.25 40.083333,116.125 40.083333))"}
{"city":"北京市","area":"","code":"1100001001","county":"","name":"中西部","province":"北京市","meshId":"605610","job1":"城区","job2":"中关村大学","workProperty":"","geometry":"POLYGON ((116.0 40.083333, 116.0 40.166667, 116.125 40.166667, 116.125 40.083333,116.0 40.083333))"}
{"city":"北京市","area":"","code":"1100001001","county":"","name":"中西部","province":"北京市","meshId":"605615","job1":"城区","job2":"中关村大学","workProperty":"","geometry":"POLYGON ((116.625 40.083333, 116.625 40.166667, 116.75 40.166667, 116.75 40.083333,116.625 40.083333))"}
{"city":"北京市","area":"","code":"1100001001","county":"","name":"中西部","province":"北京市","meshId":"605614","job1":"城区","job2":"中关村大学","workProperty":"","geometry":"POLYGON ((116.5 40.083333, 116.5 40.166667, 116.625 40.166667, 116.625 40.083333,116.5 40.083333))"}
{"city":"北京市","area":"","code":"1100001001","county":"","name":"中西部","province":"北京市","meshId":"605613","job1":"城区","job2":"中关村大学","workProperty":"","geometry":"POLYGON ((116.375 40.083333, 116.375 40.166667, 116.5 40.166667, 116.5 40.083333,116.375 40.083333))"}
{"city":"北京市","area":"","code":"1100001001","county":"","name":"中西部","province":"北京市","meshId":"605612","job1":"城区","job2":"中关村大学","workProperty":"","geometry":"POLYGON ((116.25 40.083333, 116.25 40.166667, 116.375 40.166667, 116.375 40.083333,116.25 40.083333))"}
{"city":"北京市","area":"","code":"1100001001","county":"","name":"中西部","province":"北京市","meshId":"605607","job1":"城区","job2":"中关村大学","workProperty":"","geometry":"POLYGON ((116.875 40.0, 116.875 40.083333, 117.0 40.083333, 117.0 40.0,116.875 40.0))"}
{"city":"北京市","area":"","code":"1100001001","county":"","name":"中西部","province":"北京市","meshId":"605605","job1":"城区","job2":"中关村大学","workProperty":"","geometry":"POLYGON ((116.625 40.0, 116.625 40.083333, 116.75 40.083333, 116.75 40.0,116.625 40.0))"}
{"city":"北京市","area":"","code":"1100001001","county":"","name":"中西部","province":"北京市","meshId":"605606","job1":"城区","job2":"中关村大学","workProperty":"","geometry":"POLYGON ((116.75 40.0, 116.75 40.083333, 116.875 40.083333, 116.875 40.0,116.75 40.0))"}
{"city":"北京市","area":"","code":"1100001001","county":"","name":"中西部","province":"北京市","meshId":"595525","job1":"城区","job2":"中关村大学","workProperty":"","geometry":"POLYGON ((115.625 39.5, 115.625 39.583333, 115.75 39.583333, 115.75 39.5,115.625 39.5))"}
{"city":"北京市","area":"","code":"1100001001","county":"","name":"中西部","province":"北京市","meshId":"595524","job1":"城区","job2":"中关村大学","workProperty":"","geometry":"POLYGON ((115.5 39.5, 115.5 39.583333, 115.625 39.583333, 115.625 39.5,115.5 39.5))"}
{"city":"北京市","area":"","code":"1100001001","county":"","name":"中西部","province":"北京市","meshId":"595666","job1":"城区","job2":"中关村大学","workProperty":"","geometry":"POLYGON ((116.75 39.833333, 116.75 39.916667, 116.875 39.916667, 116.875 39.833333,116.75 39.833333))"}
{"city":"北京市","area":"","code":"1100001001","county":"","name":"中西部","province":"北京市","meshId":"595527","job1":"城区","job2":"中关村大学","workProperty":"","geometry":"POLYGON ((115.875 39.5, 115.875 39.583333, 116.0 39.583333, 116.0 39.5,115.875 39.5))"}
{"city":"北京市","area":"","code":"1100001001","county":"","name":"中西部","province":"北京市","meshId":"595665","job1":"城区","job2":"中关村大学","workProperty":"","geometry":"POLYGON ((116.625 39.833333, 116.625 39.916667, 116.75 39.916667, 116.75 39.833333,116.625 39.833333))"}
{"city":"北京市","area":"","code":"1100001001","county":"","name":"中西部","province":"北京市","meshId":"595526","job1":"城区","job2":"中关村大学","workProperty":"","geometry":"POLYGON ((115.75 39.5, 115.75 39.583333, 115.875 39.583333, 115.875 39.5,115.75 39.5))"}
{"city":"北京市","area":"","code":"1100001001","county":"","name":"中西部","province":"北京市","meshId":"595667","job1":"城区","job2":"中关村大学","workProperty":"","geometry":"POLYGON ((116.875 39.833333, 116.875 39.916667, 117.0 39.916667, 117.0 39.833333,116.875 39.833333))"}
{"city":"北京市","area":"","code":"1100001001","county":"","name":"中西部","province":"北京市","meshId":"595662","job1":"城区","job2":"中关村大学","workProperty":"","geometry":"POLYGON ((116.25 39.833333, 116.25 39.916667, 116.375 39.916667, 116.375 39.833333,116.25 39.833333))"}
{"city":"北京市","area":"","code":"1100001001","county":"","name":"中西部","province":"北京市","meshId":"595661","job1":"城区","job2":"中关村大学","workProperty":"","geometry":"POLYGON ((116.125 39.833333, 116.125 39.916667, 116.25 39.916667, 116.25 39.833333,116.125 39.833333))"}
{"city":"北京市","area":"","code":"1100001001","county":"","name":"中西部","province":"北京市","meshId":"595664","job1":"城区","job2":"中关村大学","workProperty":"","geometry":"POLYGON ((116.5 39.833333, 116.5 39.916667, 116.625 39.916667, 116.625 39.833333,116.5 39.833333))"}
{"city":"北京市","area":"","code":"1100001001","county":"","name":"中西部","province":"北京市","meshId":"595663","job1":"城区","job2":"中关村大学","workProperty":"","geometry":"POLYGON ((116.375 39.833333, 116.375 39.916667, 116.5 39.916667, 116.5 39.833333,116.375 39.833333))"}
{"city":"北京市","area":"","code":"1100001001","county":"","name":"中西部","province":"北京市","meshId":"605721","job1":"城区","job2":"中关村大学","workProperty":"","geometry":"POLYGON ((117.125 40.166667, 117.125 40.25, 117.25 40.25, 117.25 40.166667,117.125 40.166667))"}
{"city":"北京市","area":"","code":"1100001001","county":"","name":"中西部","province":"北京市","meshId":"605720","job1":"城区","job2":"中关村大学","workProperty":"","geometry":"POLYGON ((117.0 40.166667, 117.0 40.25, 117.125 40.25, 117.125 40.166667,117.0 40.166667))"}
{"city":"北京市","area":"","code":"1100001001","county":"","name":"中西部","province":"北京市","meshId":"605723","job1":"城区","job2":"中关村大学","workProperty":"","geometry":"POLYGON ((117.375 40.166667, 117.375 40.25, 117.5 40.25, 117.5 40.166667,117.375 40.166667))"}
{"city":"北京市","area":"","code":"1100001001","county":"","name":"中西部","province":"北京市","meshId":"605722","job1":"城区","job2":"中关村大学","workProperty":"","geometry":"POLYGON ((117.25 40.166667, 117.25 40.25, 117.375 40.25, 117.375 40.166667,117.25 40.166667))"}
{"city":"北京市","area":"","code":"1100001001","county":"","name":"中西部","province":"北京市","meshId":"595660","job1":"城区","job2":"中关村大学","workProperty":"","geometry":"POLYGON ((116.0 39.833333, 116.0 39.916667, 116.125 39.916667, 116.125 39.833333,116.0 39.833333))"}
{"city":"北京市","area":"","code":"1100001001","county":"","name":"中西部","province":"北京市","meshId":"605624","job1":"城区","job2":"中关村大学","workProperty":"","geometry":"POLYGON ((116.5 40.166667, 116.5 40.25, 116.625 40.25, 116.625 40.166667,116.5 40.166667))"}
{"city":"北京市","area":"","code":"1100001001","county":"","name":"中西部","province":"北京市","meshId":"605623","job1":"城区","job2":"中关村大学","workProperty":"","geometry":"POLYGON ((116.375 40.166667, 116.375 40.25, 116.5 40.25, 116.5 40.166667,116.375 40.166667))"}
{"city":"北京市","area":"","code":"1100001001","county":"","name":"中西部","province":"北京市","meshId":"605626","job1":"城区","job2":"中关村大学","workProperty":"","geometry":"POLYGON ((116.75 40.166667, 116.75 40.25, 116.875 40.25, 116.875 40.166667,116.75 40.166667))"}
{"city":"北京市","area":"","code":"1100001001","county":"","name":"中西部","province":"北京市","meshId":"605625","job1":"城区","job2":"中关村大学","workProperty":"","geometry":"POLYGON ((116.625 40.166667, 116.625 40.25, 116.75 40.25, 116.75 40.166667,116.625 40.166667))"}
{"city":"北京市","area":"","code":"1100001001","county":"","name":"中西部","province":"北京市","meshId":"605514","job1":"城区","job2":"中关村大学","workProperty":"","geometry":"POLYGON ((115.5 40.083333, 115.5 40.166667, 115.625 40.166667, 115.625 40.083333,115.5 40.083333))"}
{"city":"北京市","area":"","code":"1100001001","county":"","name":"中西部","province":"北京市","meshId":"605620","job1":"城区","job2":"中关村大学","workProperty":"","geometry":"POLYGON ((116.0 40.166667, 116.0 40.25, 116.125 40.25, 116.125 40.166667,116.0 40.166667))"}
{"city":"北京市","area":"","code":"1100001001","county":"","name":"中西部","province":"北京市","meshId":"605516","job1":"城区","job2":"中关村大学","workProperty":"","geometry":"POLYGON ((115.75 40.083333, 115.75 40.166667, 115.875 40.166667, 115.875 40.083333,115.75 40.083333))"}
{"city":"北京市","area":"","code":"1100001001","county":"","name":"中西部","province":"北京市","meshId":"605622","job1":"城区","job2":"中关村大学","workProperty":"","geometry":"POLYGON ((116.25 40.166667, 116.25 40.25, 116.375 40.25, 116.375 40.166667,116.25 40.166667))"}
{"city":"北京市","area":"","code":"1100001001","county":"","name":"中西部","province":"北京市","meshId":"605515","job1":"城区","job2":"中关村大学","workProperty":"","geometry":"POLYGON ((115.625 40.083333, 115.625 40.166667, 115.75 40.166667, 115.75 40.083333,115.625 40.083333))"}
{"city":"北京市","area":"","code":"1100001001","county":"","name":"中西部","province":"北京市","meshId":"605621","job1":"城区","job2":"中关村大学","workProperty":"","geometry":"POLYGON ((116.125 40.166667, 116.125 40.25, 116.25 40.25, 116.25 40.166667,116.125 40.166667))"}
{"city":"北京市","area":"","code":"1100001001","county":"","name":"中西部","province":"北京市","meshId":"605506","job1":"城区","job2":"中关村大学","workProperty":"","geometry":"POLYGON ((115.75 40.0, 115.75 40.083333, 115.875 40.083333, 115.875 40.0,115.75 40.0))"}
{"city":"北京市","area":"","code":"1100001001","county":"","name":"中西部","province":"北京市","meshId":"595557","job1":"城区","job2":"中关村大学","workProperty":"","geometry":"POLYGON ((115.875 39.75, 115.875 39.833333, 116.0 39.833333, 116.0 39.75,115.875 39.75))"}
{"city":"北京市","area":"","code":"1100001001","county":"","name":"中西部","province":"北京市","meshId":"605507","job1":"城区","job2":"中关村大学","workProperty":"","geometry":"POLYGON ((115.875 40.0, 115.875 40.083333, 116.0 40.083333, 116.0 40.0,115.875 40.0))"}
{"city":"北京市","area":"","code":"1100001001","county":"","name":"中西部","province":"北京市","meshId":"595556","job1":"城区","job2":"中关村大学","workProperty":"","geometry":"POLYGON ((115.75 39.75, 115.75 39.833333, 115.875 39.833333, 115.875 39.75,115.75 39.75))"}
{"city":"北京市","area":"","code":"1100001001","county":"","name":"中西部","province":"北京市","meshId":"595555","job1":"城区","job2":"中关村大学","workProperty":"","geometry":"POLYGON ((115.625 39.75, 115.625 39.833333, 115.75 39.833333, 115.75 39.75,115.625 39.75))"}
{"city":"北京市","area":"","code":"1100001001","county":"","name":"中西部","province":"北京市","meshId":"605616","job1":"城区","job2":"中关村大学","workProperty":"","geometry":"POLYGON ((116.75 40.083333, 116.75 40.166667, 116.875 40.166667, 116.875 40.083333,116.75 40.083333))"}
{"city":"北京市","area":"","code":"1100001001","county":"","name":"中西部","province":"北京市","meshId":"595554","job1":"城区","job2":"中关村大学","workProperty":"","geometry":"POLYGON ((115.5 39.75, 115.5 39.833333, 115.625 39.833333, 115.625 39.75,115.5 39.75))"}
{"city":"北京市","area":"","code":"1100001001","county":"","name":"中西部","province":"北京市","meshId":"605617","job1":"城区","job2":"中关村大学","workProperty":"","geometry":"POLYGON ((116.875 40.083333, 116.875 40.166667, 117.0 40.166667, 117.0 40.083333,116.875 40.083333))"}
{"city":"北京市","area":"","code":"1100001001","county":"","name":"中西部","province":"北京市","meshId":"595553","job1":"城区","job2":"中关村大学","workProperty":"","geometry":"POLYGON ((115.375 39.75, 115.375 39.833333, 115.5 39.833333, 115.5 39.75,115.375 39.75))"}
{"city":"北京市","area":"","code":"1100001001","county":"","name":"中西部","province":"北京市","meshId":"595653","job1":"城区","job2":"中关村大学","workProperty":"","geometry":"POLYGON ((116.375 39.75, 116.375 39.833333, 116.5 39.833333, 116.5 39.75,116.375 39.75))"}
{"city":"北京市","area":"","code":"1100001001","county":"","name":"中西部","province":"北京市","meshId":"595652","job1":"城区","job2":"中关村大学","workProperty":"","geometry":"POLYGON ((116.25 39.75, 116.25 39.833333, 116.375 39.833333, 116.375 39.75,116.25 39.75))"}
{"city":"北京市","area":"","code":"1100001001","county":"","name":"中西部","province":"北京市","meshId":"595651","job1":"城区","job2":"中关村大学","workProperty":"","geometry":"POLYGON ((116.125 39.75, 116.125 39.833333, 116.25 39.833333, 116.25 39.75,116.125 39.75))"}
{"city":"北京市","area":"","code":"1100001001","county":"","name":"中西部","province":"北京市","meshId":"595650","job1":"城区","job2":"中关村大学","workProperty":"","geometry":"POLYGON ((116.0 39.75, 116.0 39.833333, 116.125 39.833333, 116.125 39.75,116.0 39.75))"}
{"city":"北京市","area":"","code":"1100001001","county":"","name":"中西部","province":"北京市","meshId":"595657","job1":"城区","job2":"中关村大学","workProperty":"","geometry":"POLYGON ((116.875 39.75, 116.875 39.833333, 117.0 39.833333, 117.0 39.75,116.875 39.75))"}
{"city":"北京市","area":"","code":"1100001001","county":"","name":"中西部","province":"北京市","meshId":"595656","job1":"城区","job2":"中关村大学","workProperty":"","geometry":"POLYGON ((116.75 39.75, 116.75 39.833333, 116.875 39.833333, 116.875 39.75,116.75 39.75))"}
{"city":"北京市","area":"","code":"1100001001","county":"","name":"中西部","province":"北京市","meshId":"595655","job1":"城区","job2":"中关村大学","workProperty":"","geometry":"POLYGON ((116.625 39.75, 116.625 39.833333, 116.75 39.833333, 116.75 39.75,116.625 39.75))"}
{"city":"北京市","area":"","code":"1100001001","county":"","name":"中西部","province":"北京市","meshId":"595654","job1":"城区","job2":"中关村大学","workProperty":"","geometry":"POLYGON ((116.5 39.75, 116.5 39.833333, 116.625 39.833333, 116.625 39.75,116.5 39.75))"}
{"city":"北京市","area":"","code":"1100001001","county":"","name":"中西部","province":"北京市","meshId":"605732","job1":"城区","job2":"中关村大学","workProperty":"","geometry":"POLYGON ((117.25 40.25, 117.25 40.333333, 117.375 40.333333, 117.375 40.25,117.25 40.25))"}
{"city":"北京市","area":"","code":"1100001001","county":"","name":"中西部","province":"北京市","meshId":"605731","job1":"城区","job2":"中关村大学","workProperty":"","geometry":"POLYGON ((117.125 40.25, 117.125 40.333333, 117.25 40.333333, 117.25 40.25,117.125 40.25))"}
{"city":"北京市","area":"","code":"1100001001","county":"","name":"中西部","province":"北京市","meshId":"605730","job1":"城区","job2":"中关村大学","workProperty":"","geometry":"POLYGON ((117.0 40.25, 117.0 40.333333, 117.125 40.333333, 117.125 40.25,117.0 40.25))"}
{"city":"北京市","area":"","code":"1100001001","county":"","name":"中西部","province":"北京市","meshId":"605637","job1":"城区","job2":"中关村大学","workProperty":"","geometry":"POLYGON ((116.875 40.25, 116.875 40.333333, 117.0 40.333333, 117.0 40.25,116.875 40.25))"}
{"city":"北京市","area":"","code":"1100001001","county":"","name":"中西部","province":"北京市","meshId":"605636","job1":"城区","job2":"中关村大学","workProperty":"","geometry":"POLYGON ((116.75 40.25, 116.75 40.333333, 116.875 40.333333, 116.875 40.25,116.75 40.25))"}
{"city":"北京市","area":"","code":"1100001001","county":"","name":"中西部","province":"北京市","meshId":"605635","job1":"城区","job2":"中关村大学","workProperty":"","geometry":"POLYGON ((116.625 40.25, 116.625 40.333333, 116.75 40.333333, 116.75 40.25,116.625 40.25))"}
{"city":"北京市","area":"","code":"1100001001","county":"","name":"中西部","province":"北京市","meshId":"605634","job1":"城区","job2":"中关村大学","workProperty":"","geometry":"POLYGON ((116.5 40.25, 116.5 40.333333, 116.625 40.333333, 116.625 40.25,116.5 40.25))"}
{"city":"北京市","area":"","code":"1100001001","county":"","name":"中西部","province":"北京市","meshId":"605505","job1":"城区","job2":"中关村大学","workProperty":"","geometry":"POLYGON ((115.625 40.0, 115.625 40.083333, 115.75 40.083333, 115.75 40.0,115.625 40.0))"}
{"city":"北京市","area":"","code":"1100001001","county":"","name":"中西部","province":"北京市","meshId":"605633","job1":"城区","job2":"中关村大学","workProperty":"","geometry":"POLYGON ((116.375 40.25, 116.375 40.333333, 116.5 40.333333, 116.5 40.25,116.375 40.25))"}
{"city":"北京市","area":"","code":"1100001001","county":"","name":"中西部","province":"北京市","meshId":"605504","job1":"城区","job2":"中关村大学","workProperty":"","geometry":"POLYGON ((115.5 40.0, 115.5 40.083333, 115.625 40.083333, 115.625 40.0,115.5 40.0))"}
{"city":"北京市","area":"","code":"1100001001","county":"","name":"中西部","province":"北京市","meshId":"605632","job1":"城区","job2":"中关村大学","workProperty":"","geometry":"POLYGON ((116.25 40.25, 116.25 40.333333, 116.375 40.333333, 116.375 40.25,116.25 40.25))"}
{"city":"北京市","area":"","code":"1100001001","county":"","name":"中西部","province":"北京市","meshId":"605631","job1":"城区","job2":"中关村大学","workProperty":"","geometry":"POLYGON ((116.125 40.25, 116.125 40.333333, 116.25 40.333333, 116.25 40.25,116.125 40.25))"}
{"city":"北京市","area":"","code":"1100001001","county":"","name":"中西部","province":"北京市","meshId":"605503","job1":"城区","job2":"中关村大学","workProperty":"","geometry":"POLYGON ((115.375 40.0, 115.375 40.083333, 115.5 40.083333, 115.5 40.0,115.375 40.0))"}
{"city":"北京市","area":"","code":"1100001001","county":"","name":"中西部","province":"北京市","meshId":"605630","job1":"城区","job2":"中关村大学","workProperty":"","geometry":"POLYGON ((116.0 40.25, 116.0 40.333333, 116.125 40.333333, 116.125 40.25,116.0 40.25))"}
{"city":"北京市","area":"","code":"1100001001","county":"","name":"中西部","province":"北京市","meshId":"595545","job1":"城区","job2":"中关村大学","workProperty":"","geometry":"POLYGON ((115.625 39.666667, 115.625 39.75, 115.75 39.75, 115.75 39.666667,115.625 39.666667))"}
{"city":"北京市","area":"","code":"1100001001","county":"","name":"中西部","province":"北京市","meshId":"595647","job1":"城区","job2":"中关村大学","workProperty":"","geometry":"POLYGON ((116.875 39.666667, 116.875 39.75, 117.0 39.75, 117.0 39.666667,116.875 39.666667))"}
{"city":"北京市","area":"","code":"1100001001","county":"","name":"中西部","province":"北京市","meshId":"595544","job1":"城区","job2":"中关村大学","workProperty":"","geometry":"POLYGON ((115.5 39.666667, 115.5 39.75, 115.625 39.75, 115.625 39.666667,115.5 39.666667))"}
{"city":"北京市","area":"","code":"1100001001","county":"","name":"中西部","province":"北京市","meshId":"595547","job1":"城区","job2":"中关村大学","workProperty":"","geometry":"POLYGON ((115.875 39.666667, 115.875 39.75, 116.0 39.75, 116.0 39.666667,115.875 39.666667))"}
{"city":"北京市","area":"","code":"1100001001","county":"","name":"中西部","province":"北京市","meshId":"595546","job1":"城区","job2":"中关村大学","workProperty":"","geometry":"POLYGON ((115.75 39.666667, 115.75 39.75, 115.875 39.75, 115.875 39.666667,115.75 39.666667))"}
{"city":"北京市","area":"","code":"1100001001","county":"","name":"中西部","province":"北京市","meshId":"605627","job1":"城区","job2":"中关村大学","workProperty":"","geometry":"POLYGON ((116.875 40.166667, 116.875 40.25, 117.0 40.25, 117.0 40.166667,116.875 40.166667))"}
{"city":"北京市","area":"","code":"1100001001","county":"","name":"中西部","province":"北京市","meshId":"595543","job1":"城区","job2":"中关村大学","workProperty":"","geometry":"POLYGON ((115.375 39.666667, 115.375 39.75, 115.5 39.75, 115.5 39.666667,115.375 39.666667))"}
{"city":"北京市","area":"","code":"1100001001","county":"","name":"中西部","province":"北京市","meshId":"595640","job1":"城区","job2":"中关村大学","workProperty":"","geometry":"POLYGON ((116.0 39.666667, 116.0 39.75, 116.125 39.75, 116.125 39.666667,116.0 39.666667))"}
{"city":"北京市","area":"","code":"1100001001","county":"","name":"中西部","province":"北京市","meshId":"595642","job1":"城区","job2":"中关村大学","workProperty":"","geometry":"POLYGON ((116.25 39.666667, 116.25 39.75, 116.375 39.75, 116.375 39.666667,116.25 39.666667))"}
{"city":"北京市","area":"","code":"1100001001","county":"","name":"中西部","province":"北京市","meshId":"595641","job1":"城区","job2":"中关村大学","workProperty":"","geometry":"POLYGON ((116.125 39.666667, 116.125 39.75, 116.25 39.75, 116.25 39.666667,116.125 39.666667))"}
{"city":"北京市","area":"","code":"1100001001","county":"","name":"中西部","province":"北京市","meshId":"595644","job1":"城区","job2":"中关村大学","workProperty":"","geometry":"POLYGON ((116.5 39.666667, 116.5 39.75, 116.625 39.75, 116.625 39.666667,116.5 39.666667))"}
{"city":"北京市","area":"","code":"1100001001","county":"","name":"中西部","province":"北京市","meshId":"595643","job1":"城区","job2":"中关村大学","workProperty":"","geometry":"POLYGON ((116.375 39.666667, 116.375 39.75, 116.5 39.75, 116.5 39.666667,116.375 39.666667))"}
{"city":"北京市","area":"","code":"1100001001","county":"","name":"中西部","province":"北京市","meshId":"595646","job1":"城区","job2":"中关村大学","workProperty":"","geometry":"POLYGON ((116.75 39.666667, 116.75 39.75, 116.875 39.75, 116.875 39.666667,116.75 39.666667))"}
{"city":"北京市","area":"","code":"1100001001","county":"","name":"中西部","province":"北京市","meshId":"595645","job1":"城区","job2":"中关村大学","workProperty":"","geometry":"POLYGON ((116.625 39.666667, 116.625 39.75, 116.75 39.75, 116.75 39.666667,116.625 39.666667))"}
{"city":"北京市","area":"","code":"1100001001","county":"","name":"中西部","province":"北京市","meshId":"615703","job1":"城区","job2":"中关村大学","workProperty":"","geometry":"POLYGON ((117.375 40.666667, 117.375 40.75, 117.5 40.75, 117.5 40.666667,117.375 40.666667))"}
{"city":"北京市","area":"","code":"1100001001","county":"","name":"中西部","province":"北京市","meshId":"595566","job1":"城区","job2":"中关村大学","workProperty":"","geometry":"POLYGON ((115.75 39.833333, 115.75 39.916667, 115.875 39.916667, 115.875 39.833333,115.75 39.833333))"}
{"city":"北京市","area":"","code":"1100001001","county":"","name":"中西部","province":"北京市","meshId":"595567","job1":"城区","job2":"中关村大学","workProperty":"","geometry":"POLYGON ((115.875 39.833333, 115.875 39.916667, 116.0 39.916667, 116.0 39.833333,115.875 39.833333))"}
{"city":"北京市","area":"","code":"1100001001","county":"","name":"中西部","province":"北京市","meshId":"595564","job1":"城区","job2":"中关村大学","workProperty":"","geometry":"POLYGON ((115.5 39.833333, 115.5 39.916667, 115.625 39.916667, 115.625 39.833333,115.5 39.833333))"}
{"city":"北京市","area":"","code":"1100001001","county":"","name":"中西部","province":"北京市","meshId":"595565","job1":"城区","job2":"中关村大学","workProperty":"","geometry":"POLYGON ((115.625 39.833333, 115.625 39.916667, 115.75 39.916667, 115.75 39.833333,115.625 39.833333))"}
{"city":"北京市","area":"","code":"1100001001","county":"","name":"中西部","province":"北京市","meshId":"605710","job1":"城区","job2":"中关村大学","workProperty":"","geometry":"POLYGON ((117.0 40.083333, 117.0 40.166667, 117.125 40.166667, 117.125 40.083333,117.0 40.083333))"}
{"city":"北京市","area":"","code":"1100001001","county":"","name":"中西部","province":"北京市","meshId":"605711","job1":"城区","job2":"中关村大学","workProperty":"","geometry":"POLYGON ((117.125 40.083333, 117.125 40.166667, 117.25 40.166667, 117.25 40.083333,117.125 40.083333))"}
{"city":"北京市","area":"","code":"1100001001","county":"","name":"中西部","province":"北京市","meshId":"605712","job1":"城区","job2":"中关村大学","workProperty":"","geometry":"POLYGON ((117.25 40.083333, 117.25 40.166667, 117.375 40.166667, 117.375 40.083333,117.25 40.083333))"}
{"city":"北京市","area":"","code":"1100001001","county":"","name":"中西部","province":"北京市","meshId":"595577","job1":"城区","job2":"中关村大学","workProperty":"","geometry":"POLYGON ((115.875 39.916667, 115.875 40.0, 116.0 40.0, 116.0 39.916667,115.875 39.916667))"}
{"city":"北京市","area":"","code":"1100001001","county":"","name":"中西部","province":"北京市","meshId":"595573","job1":"城区","job2":"中关村大学","workProperty":"","geometry":"POLYGON ((115.375 39.916667, 115.375 40.0, 115.5 40.0, 115.5 39.916667,115.375 39.916667))"}
{"city":"北京市","area":"","code":"1100001001","county":"","name":"中西部","province":"北京市","meshId":"595574","job1":"城区","job2":"中关村大学","workProperty":"","geometry":"POLYGON ((115.5 39.916667, 115.5 40.0, 115.625 40.0, 115.625 39.916667,115.5 39.916667))"}
{"city":"北京市","area":"","code":"1100001001","county":"","name":"中西部","province":"北京市","meshId":"595575","job1":"城区","job2":"中关村大学","workProperty":"","geometry":"POLYGON ((115.625 39.916667, 115.625 40.0, 115.75 40.0, 115.75 39.916667,115.625 39.916667))"}
{"city":"北京市","area":"","code":"1100001001","county":"","name":"中西部","province":"北京市","meshId":"595576","job1":"城区","job2":"中关村大学","workProperty":"","geometry":"POLYGON ((115.75 39.916667, 115.75 40.0, 115.875 40.0, 115.875 39.916667,115.75 39.916667))"}
{"city":"北京市","area":"","code":"1100001001","county":"","name":"中西部","province":"北京市","meshId":"615702","job1":"城区","job2":"中关村大学","workProperty":"","geometry":"POLYGON ((117.25 40.666667, 117.25 40.75, 117.375 40.75, 117.375 40.666667,117.25 40.666667))"}
{"city":"北京市","area":"","code":"1100001001","county":"","name":"中西部","province":"北京市","meshId":"615701","job1":"城区","job2":"中关村大学","workProperty":"","geometry":"POLYGON ((117.125 40.666667, 117.125 40.75, 117.25 40.75, 117.25 40.666667,117.125 40.666667))"}
{"city":"北京市","area":"","code":"1100001001","county":"","name":"中西部","province":"北京市","meshId":"615700","job1":"城区","job2":"中关村大学","workProperty":"","geometry":"POLYGON ((117.0 40.666667, 117.0 40.75, 117.125 40.75, 117.125 40.666667,117.0 40.666667))"}
{"city":"北京市","area":"","code":"1100001001","county":"","name":"中西部","province":"北京市","meshId":"605700","job1":"城区","job2":"中关村大学","workProperty":"","geometry":"POLYGON ((117.0 40.0, 117.0 40.083333, 117.125 40.083333, 117.125 40.0,117.0 40.0))"}
{"city":"北京市","area":"","code":"1100001001","county":"","name":"中西部","province":"北京市","meshId":"605701","job1":"城区","job2":"中关村大学","workProperty":"","geometry":"POLYGON ((117.125 40.0, 117.125 40.083333, 117.25 40.083333, 117.25 40.0,117.125 40.0))"}
{"city":"北京市","area":"","code":"1100001001","county":"","name":"中西部","province":"北京市","meshId":"615605","job1":"城区","job2":"中关村大学","workProperty":"","geometry":"POLYGON ((116.625 40.666667, 116.625 40.75, 116.75 40.75, 116.75 40.666667,116.625 40.666667))"}
{"city":"北京市","area":"","code":"1100001001","county":"","name":"中西部","province":"北京市","meshId":"615604","job1":"城区","job2":"中关村大学","workProperty":"","geometry":"POLYGON ((116.5 40.666667, 116.5 40.75, 116.625 40.75, 116.625 40.666667,116.5 40.666667))"}
{"city":"北京市","area":"","code":"1100001001","county":"","name":"中西部","province":"北京市","meshId":"615607","job1":"城区","job2":"中关村大学","workProperty":"","geometry":"POLYGON ((116.875 40.666667, 116.875 40.75, 117.0 40.75, 117.0 40.666667,116.875 40.666667))"}
{"city":"北京市","area":"","code":"1100001001","county":"","name":"中西部","province":"北京市","meshId":"615606","job1":"城区","job2":"中关村大学","workProperty":"","geometry":"POLYGON ((116.75 40.666667, 116.75 40.75, 116.875 40.75, 116.875 40.666667,116.75 40.666667))"}
{"city":"北京市","area":"","code":"1100001001","county":"","name":"中西部","province":"北京市","meshId":"615611","job1":"城区","job2":"中关村大学","workProperty":"","geometry":"POLYGON ((116.125 40.75, 116.125 40.833333, 116.25 40.833333, 116.25 40.75,116.125 40.75))"}
{"city":"北京市","area":"","code":"1100001001","county":"","name":"中西部","province":"北京市","meshId":"615612","job1":"城区","job2":"中关村大学","workProperty":"","geometry":"POLYGON ((116.25 40.75, 116.25 40.833333, 116.375 40.833333, 116.375 40.75,116.25 40.75))"}
{"city":"北京市","area":"","code":"1100001001","county":"","name":"中西部","province":"北京市","meshId":"615613","job1":"城区","job2":"中关村大学","workProperty":"","geometry":"POLYGON ((116.375 40.75, 116.375 40.833333, 116.5 40.833333, 116.5 40.75,116.375 40.75))"}
{"city":"北京市","area":"","code":"1100001001","county":"","name":"中西部","province":"北京市","meshId":"615614","job1":"城区","job2":"中关村大学","workProperty":"","geometry":"POLYGON ((116.5 40.75, 116.5 40.833333, 116.625 40.833333, 116.625 40.75,116.5 40.75))"}
{"city":"北京市","area":"","code":"1100001001","county":"","name":"中西部","province":"北京市","meshId":"605577","job1":"城区","job2":"中关村大学","workProperty":"","geometry":"POLYGON ((115.875 40.583333, 115.875 40.666667, 116.0 40.666667, 116.0 40.583333,115.875 40.583333))"}
{"city":"北京市","area":"","code":"1100001001","county":"","name":"中西部","province":"北京市","meshId":"605576","job1":"城区","job2":"中关村大学","workProperty":"","geometry":"POLYGON ((115.75 40.583333, 115.75 40.666667, 115.875 40.666667, 115.875 40.583333,115.75 40.583333))"}
{"city":"北京市","area":"","code":"1100001001","county":"","name":"中西部","province":"北京市","meshId":"615602","job1":"城区","job2":"中关村大学","workProperty":"","geometry":"POLYGON ((116.25 40.666667, 116.25 40.75, 116.375 40.75, 116.375 40.666667,116.25 40.666667))"}
{"city":"北京市","area":"","code":"1100001001","county":"","name":"中西部","province":"北京市","meshId":"615603","job1":"城区","job2":"中关村大学","workProperty":"","geometry":"POLYGON ((116.375 40.666667, 116.375 40.75, 116.5 40.75, 116.5 40.666667,116.375 40.666667))"}
{"city":"北京市","area":"","code":"1100001001","county":"","name":"中西部","province":"北京市","meshId":"615601","job1":"城区","job2":"中关村大学","workProperty":"","geometry":"POLYGON ((116.125 40.666667, 116.125 40.75, 116.25 40.75, 116.25 40.666667,116.125 40.666667))"}
{"city":"北京市","area":"","code":"1100001001","county":"","name":"中西部","province":"北京市","meshId":"605565","job1":"城区","job2":"中关村大学","workProperty":"","geometry":"POLYGON ((115.625 40.5, 115.625 40.583333, 115.75 40.583333, 115.75 40.5,115.625 40.5))"}
{"city":"北京市","area":"","code":"1100001001","county":"","name":"中西部","province":"北京市","meshId":"605567","job1":"城区","job2":"中关村大学","workProperty":"","geometry":"POLYGON ((115.875 40.5, 115.875 40.583333, 116.0 40.583333, 116.0 40.5,115.875 40.5))"}
{"city":"北京市","area":"","code":"1100001001","county":"","name":"中西部","province":"北京市","meshId":"605566","job1":"城区","job2":"中关村大学","workProperty":"","geometry":"POLYGON ((115.75 40.5, 115.75 40.583333, 115.875 40.583333, 115.875 40.5,115.75 40.5))"}
{"city":"北京市","area":"","code":"1100001001","county":"","name":"中西部","province":"北京市","meshId":"615626","job1":"城区","job2":"中关村大学","workProperty":"","geometry":"POLYGON ((116.75 40.833333, 116.75 40.916667, 116.875 40.916667, 116.875 40.833333,116.75 40.833333))"}
{"city":"北京市","area":"","code":"1100001001","county":"","name":"中西部","province":"北京市","meshId":"615632","job1":"城区","job2":"中关村大学","workProperty":"","geometry":"POLYGON ((116.25 40.916667, 116.25 41.0, 116.375 41.0, 116.375 40.916667,116.25 40.916667))"}
{"city":"北京市","area":"","code":"1100001001","county":"","name":"中西部","province":"北京市","meshId":"615633","job1":"城区","job2":"中关村大学","workProperty":"","geometry":"POLYGON ((116.375 40.916667, 116.375 41.0, 116.5 41.0, 116.5 40.916667,116.375 40.916667))"}
{"city":"北京市","area":"","code":"1100001001","county":"","name":"中西部","province":"北京市","meshId":"615634","job1":"城区","job2":"中关村大学","workProperty":"","geometry":"POLYGON ((116.5 40.916667, 116.5 41.0, 116.625 41.0, 116.625 40.916667,116.5 40.916667))"}
{"city":"北京市","area":"","code":"1100001001","county":"","name":"中西部","province":"北京市","meshId":"615635","job1":"城区","job2":"中关村大学","workProperty":"","geometry":"POLYGON ((116.625 40.916667, 116.625 41.0, 116.75 41.0, 116.75 40.916667,116.625 40.916667))"}
{"city":"北京市","area":"","code":"1100001001","county":"","name":"中西部","province":"北京市","meshId":"615617","job1":"城区","job2":"中关村大学","workProperty":"","geometry":"POLYGON ((116.875 40.75, 116.875 40.833333, 117.0 40.833333, 117.0 40.75,116.875 40.75))"}
{"city":"北京市","area":"","code":"1100001001","county":"","name":"中西部","province":"北京市","meshId":"615616","job1":"城区","job2":"中关村大学","workProperty":"","geometry":"POLYGON ((116.75 40.75, 116.75 40.833333, 116.875 40.833333, 116.875 40.75,116.75 40.75))"}
{"city":"北京市","area":"","code":"1100001001","county":"","name":"中西部","province":"北京市","meshId":"615615","job1":"城区","job2":"中关村大学","workProperty":"","geometry":"POLYGON ((116.625 40.75, 116.625 40.833333, 116.75 40.833333, 116.75 40.75,116.625 40.75))"}
{"city":"北京市","area":"","code":"1100001001","county":"","name":"中西部","province":"北京市","meshId":"615624","job1":"城区","job2":"中关村大学","workProperty":"","geometry":"POLYGON ((116.5 40.833333, 116.5 40.916667, 116.625 40.916667, 116.625 40.833333,116.5 40.833333))"}
{"city":"北京市","area":"","code":"1100001001","county":"","name":"中西部","province":"北京市","meshId":"615625","job1":"城区","job2":"中关村大学","workProperty":"","geometry":"POLYGON ((116.625 40.833333, 116.625 40.916667, 116.75 40.916667, 116.75 40.833333,116.625 40.833333))"}
{"city":"北京市","area":"","code":"1100001001","county":"","name":"中西部","province":"北京市","meshId":"615622","job1":"城区","job2":"中关村大学","workProperty":"","geometry":"POLYGON ((116.25 40.833333, 116.25 40.916667, 116.375 40.916667, 116.375 40.833333,116.25 40.833333))"}
{"city":"北京市","area":"","code":"1100001001","county":"","name":"中西部","province":"北京市","meshId":"615623","job1":"城区","job2":"中关村大学","workProperty":"","geometry":"POLYGON ((116.375 40.833333, 116.375 40.916667, 116.5 40.916667, 116.5 40.833333,116.375 40.833333))"}
